[
    {
        "vimeoID":"254504566",
        "time": "3s",
        "endtime": "59s",
        "title": "bizim mahalle",
        "lat": 41.035127, 
        "long": 28.941281
    },
    {
        "vimeoID":"254504566",
        "time": "2m53s",
        "endtime": "3m27s",
        "title": "tüm yeni insanlar",
        "lat": 41.035430,
        "long": 28.941239
    },
    {
        "vimeoID":"254504566",
        "time": "3m27s",
        "endtime": "4m11s",
        "title": "bu bahçede büyüdüm",
        "lat": 41.0346221,
        "long": 28.9412883
    },
    {
        "vimeoID":"254504566",
        "time": "6m39s",
        "endtime": "7m03s",
        "title": "horozlara uyanmak",
        "lat": 41.0346221,
        "long": 28.9412883
    },
    {
        "vimeoID":"254504566",
        "time": "7m11s",
        "endtime": "7m43s",
        "title": "duvarlar: bizim oyun alanımız",
        "lat": 41.034497,
        "long": 28.941259 
    },
    {
        "vimeoID":"254504566",
        "time": "8m13s",
        "endtime": "8m27s",
        "title": "kazmak",
        "lat": 41.033619,
        "long": 28.940750
    },
    {
        "vimeoID":"253810072",
        "time": "2m27s",
        "endtime": "2m58s",
        "title": "mistik, sakin",
        "lat": 41.031382, 
        "long": 28.938506
    },
    {
        "vimeoID":"253810072",
        "time": "6m44s",
        "endtime": "7m02s",
        "title": "düşüş",
        "lat": 41.031541, 
        "long": 28.936720
    },

    {
        "vimeoID":"253810072",
        "time": "8m45s",
        "endtime": "9m05s",
        "title": "bayraklar ve ışıklar",
        "lat": 41.031579, 
        "long": 28.938697
    },
    {
        "vimeoID":"252319406",
        "time": "21s",
        "endtime": "43s",
        "title": "bahçe havası",
        "lat": 41.001198, 
        "long": 28.922850
    },
    {
        "vimeoID":"252319406",
        "time": "55s",
        "endtime": "1m33s",
        "title": "Roman komşular",
        "lat": 41.000805, 
        "long": 28.922880
    },    
    {
        "vimeoID":"252319406",
        "time": "5m9s",
        "endtime": "5m41s",
        "title": "hamam",
        "lat": 40.997233, 
        "long": 28.924166
    },    
    {
        "vimeoID":"252319406",
        "time": "6m17s",
        "endtime": "6m51s",
        "title": "bağımlılık",
        "lat": 40.995789, 
        "long": 28.921668
    },    
    {
        "vimeoID":"252319406",
        "time": "7m56s",
        "endtime": "8m29s",
        "title": "gecekondu evleri",
        "lat": 40.998059, 
        "long": 28.921177
    },    
    {
        "vimeoID":"252319406",
        "time": "3s",
        "endtime": "59s",
        "title": "yeşilliklerimi satın almak",
        "lat": 40.998316, 
        "long": 28.921116
    },    
    {
        "vimeoID":"252319406",
        "time": "20m46s",
        "endtime": "21m18s",
        "title": "trene atlamak",
        "lat": 40.994570, 
        "long": 28.928651
    },
    {
        "vimeoID":"251478075",
        "time": "5s",
        "endtime": "35s",
        "title": "köy",
        "lat": 40.994470,
        "long": 28.925036
    },
    {
        "vimeoID":"251478075",
        "time": "35s",
        "endtime": "1m9s",
        "title": "yerleştik",
        "lat": 40.995736,
        "long": 28.926694
    },
    {
        "vimeoID":"251478075",
        "time": "1m9s",
        "endtime": "1m19s",
        "title": "aynı tür insanlar",
        "lat": 40.996500,
        "long": 28.927560
    },
    {
        "vimeoID":"251478075",
        "time": "2m57s",
        "endtime": "3m21s",
        "title": "ahşap evler",
        "lat": 40.994822,
        "long": 28.929035
    },
    {
        "vimeoID":"251478075",
        "time": "3m21s",
        "endtime": "4m5s",
        "title": "trenler",
        "lat": 40.993897,
        "long": 28.927073
    },
    {
        "vimeoID":"251478075",
        "time": "4m9s",
        "endtime": "4m33s",
        "title": "kentsel değişim",
        "lat": 40.996569,
        "long": 28.922057
    },
    {
        "vimeoID":"251478075",
        "time": "4m33s",
        "endtime": "5m19s",
        "title": "yıkım",
        "lat": 40.994032,
        "long": 28.922344
    },
    {
        "vimeoID":"251472940",
        "time": "1s",
        "endtime": "27s",
        "title": "duvar yazısı",
        "lat": 41.030611, 
        "long": 28.935331
    },
    {
        "vimeoID":"251472940",
        "time": "2m58s",
        "endtime": "3m38s",
        "title": "gecekondu ve çadırlar ",
        "lat": 41.029769, 
        "long": 28.935295
    },

    {
        "vimeoID":"251472940",
        "time": "6m15s",
        "endtime": "6m37s",
        "title": "kahve ve dikenli tel",
        "lat": 41.027285, 
        "long": 28.932471
    }
    ,

    {
        "vimeoID":"251472940",
        "time": "7m0s",
        "endtime": "7m43s",
        "title": "kültürel miras ve at eti",
        "lat": 41.026778, 
        "long": 28.931917
    }
    ,

    {
        "vimeoID":"251472940",
        "time": "11m22s",
        "endtime": "12m06s",
        "title": "geçici olarak koruma altında",
        "lat": 41.025048, 
        "long": 28.930243
    },
    {
        "vimeoID":"251475186",
        "time": "4m59s",
        "endtime": "5m33s",
        "title": "süslenmiş at arabaları",
        "lat": 40.994992, 
        "long": 28.925666
    },
    {
        "vimeoID":"251475186",
        "time": "7m01s",
        "endtime": "7m37s",
        "title": "kayıp bahçeler",
        "lat": 40.994373, 
        "long": 28.923652
    },
    {
        "vimeoID":"251475186",
        "time": "8m13s",
        "endtime": "8m51s",
        "title": "filmler ve kavgalar",
        "lat": 40.993753, 
        "long": 28.923762
    },
    {
        "vimeoID":"251475186",
        "time": "11m29s",
        "endtime": "12m1s",
        "title": "dıştan içe bakış",
        "lat": 40.994404, 
        "long": 28.920663
    },
    {
        "vimeoID":"251475186",
        "time": "15m59s",
        "endtime": "16m29s",
        "title": "ayrım",
        "lat": 40.998443, 
        "long": 28.920170
    }

]